{
"type": "FeatureCollection",
"crs": { "type": "name", "properties": { "name": "urn:ogc:def:crs:OGC:1.3:CRS84" } },
                                                                                
"features": [
{ "type": "Feature", "properties": { "OSM_ID": -1674442.000000, "NAME": "Калининград", "NAME_EN": null, "NAME_RU": "Калининград", "PLACE": "city", "A_CNTR": null, "A_RGN": "Калининградская область", "A_DSTRCT": null, "A_PSTCD": null, "POPULATION": null, "num": 40.000000, "name_1": "г. Калининград", "subj": "Калининградская область", "chisl": 453461.000000, "status": "Столица", "name_clear": "Калининград", "osm_population": null }, "geometry": { "type": "Point", "coordinates": [ 20.451630502706386, 54.708716768109682 ] } },
{ "type": "Feature", "properties": { "OSM_ID": -1306984.000000, "NAME": "Псков", "NAME_EN": "Pskov", "NAME_RU": "Псков", "PLACE": "city", "A_CNTR": "RU", "A_RGN": "Псковская область", "A_DSTRCT": null, "A_PSTCD": "180000", "POPULATION": null, "num": 75.000000, "name_1": "г. Псков", "subj": "Псковская область", "chisl": 207571.000000, "status": "Столица", "name_clear": "Псков", "osm_population": "206730" }, "geometry": { "type": "Point", "coordinates": [ 28.365002818936727, 57.808087377640824 ] } },
{ "type": "Feature", "properties": { "OSM_ID": -3374641.000000, "NAME": "Мурманск", "NAME_EN": "Murmansk", "NAME_RU": "Мурманск", "PLACE": "city", "A_CNTR": "RU", "A_RGN": "Мурманская область", "A_DSTRCT": "городской округ Мурманск", "A_PSTCD": null, "POPULATION": null, "num": 62.000000, "name_1": "г. Мурманск", "subj": "Мурманская область", "chisl": 305236.000000, "status": "Столица", "name_clear": "Мурманск", "osm_population": "305236" }, "geometry": { "type": "Point", "coordinates": [ 33.110033779379158, 68.965501849851847 ] } },
{ "type": "Feature", "properties": { "OSM_ID": -2401506.000000, "NAME": "Брянск", "NAME_EN": "Bryansk", "NAME_RU": "Брянск", "PLACE": "city", "A_CNTR": "RU", "A_RGN": "Брянская область", "A_DSTRCT": "городской округ Брянск", "A_PSTCD": null, "POPULATION": null, "num": 47.000000, "name_1": "г. Брянск", "subj": "Брянская область", "chisl": 407256.000000, "status": "Столица", "name_clear": "Брянск", "osm_population": "407256" }, "geometry": { "type": "Point", "coordinates": [ 34.345229522326868, 53.273656352969098 ] } },
{ "type": "Feature", "properties": { "OSM_ID": -1701311.000000, "NAME": "Петрозаводск", "NAME_EN": "Petrozavodsk", "NAME_RU": null, "PLACE": "city", "A_CNTR": "RU", "A_RGN": "Карелия", "A_DSTRCT": null, "A_PSTCD": "185000", "POPULATION": null, "num": 68.000000, "name_1": "г. Петрозаводск", "subj": "Республика Карелия", "chisl": 275346.000000, "status": "Столица", "name_clear": "Петрозаводск", "osm_population": "275346" }, "geometry": { "type": "Point", "coordinates": [ 34.352188060027764, 61.78537786961941 ] } },
{ "type": "Feature", "properties": { "OSM_ID": -1775054.000000, "NAME": "Орёл", "NAME_EN": "Oryol", "NAME_RU": null, "PLACE": "city", "A_CNTR": "RU", "A_RGN": "Орловская область", "A_DSTRCT": "городской округ Орёл", "A_PSTCD": null, "POPULATION": "333600", "num": 58.000000, "name_1": "г. Орёл", "subj": "Орловская область", "chisl": 319550.000000, "status": "Столица", "name_clear": "Орёл", "osm_population": "319550" }, "geometry": { "type": "Point", "coordinates": [ 36.090063346322744, 52.961055346039494 ] } },
{ "type": "Feature", "properties": { "OSM_ID": -3348896.000000, "NAME": "Курск", "NAME_EN": "Kursk", "NAME_RU": "Курск", "PLACE": "city", "A_CNTR": "RU", "A_RGN": "Курская область", "A_DSTRCT": "городской округ Курск", "A_PSTCD": null, "POPULATION": null, "num": 41.000000, "name_1": "г. Курск", "subj": "Курская область", "chisl": 435117.000000, "status": "Столица", "name_clear": "Курск", "osm_population": "435117" }, "geometry": { "type": "Point", "coordinates": [ 36.158250113729189, 51.72824305881727 ] } },
{ "type": "Feature", "properties": { "OSM_ID": 149735315.000000, "NAME": "Белгород", "NAME_EN": "Belgorod", "NAME_RU": "Белгород", "PLACE": "city", "A_CNTR": "RU", "A_RGN": "Белгородская область", "A_DSTRCT": null, "A_PSTCD": null, "POPULATION": null, "num": 49.000000, "name_1": "г. Белгород", "subj": "Белгородская область", "chisl": 384425.000000, "status": "Столица", "name_clear": "Белгород", "osm_population": "384425" }, "geometry": { "type": "Point", "coordinates": [ 36.574370547759436, 50.591532435227911 ] } },
{ "type": "Feature", "properties": { "OSM_ID": -1477110.000000, "NAME": "Новороссийск", "NAME_EN": "Novorossiysk", "NAME_RU": "Новороссийск", "PLACE": "city", "A_CNTR": "RU", "A_RGN": "Краснодарский край", "A_DSTRCT": null, "A_PSTCD": "353900", "POPULATION": null, "num": 70.000000, "name_1": "г. Новороссийск", "subj": "Краснодарский край", "chisl": 262250.000000, "status": null, "name_clear": "Новороссийск", "osm_population": "262250" }, "geometry": { "type": "Point", "coordinates": [ 37.772998318925254, 44.71359325637259 ] } },
{ "type": "Feature", "properties": { "OSM_ID": -1430508.000000, "NAME": "Сочи", "NAME_EN": "Sochi", "NAME_RU": "Сочи", "PLACE": "city", "A_CNTR": "RU", "A_RGN": "Краснодарский край", "A_DSTRCT": "городской округ Сочи", "A_PSTCD": null, "POPULATION": null, "num": 48.000000, "name_1": "г. Сочи", "subj": "Краснодарский край", "chisl": 389946.000000, "status": null, "name_clear": "Сочи", "osm_population": "389946" }, "geometry": { "type": "Point", "coordinates": [ 39.657543798616103, 43.664495184504496 ] } },
{ "type": "Feature", "properties": { "OSM_ID": -1285772.000000, "NAME": "Ростов-на-Дону", "NAME_EN": "Rostov-on-Don", "NAME_RU": "Ростов-на-Дону", "PLACE": "city", "A_CNTR": "RU", "A_RGN": "Ростовская область", "A_DSTRCT": "городской округ Ростов-на-Дону", "A_PSTCD": null, "POPULATION": "1114806", "num": 10.000000, "name_1": "г. Ростов-на-Дону", "subj": "Ростовская область", "chisl": 1114806.000000, "status": "Столица", "name_clear": "Ростов-на-Дону", "osm_population": "1114806" }, "geometry": { "type": "Point", "coordinates": [ 39.673364583664643, 47.237022090659345 ] } },
{ "type": "Feature", "properties": { "OSM_ID": -3134925.000000, "NAME": "Липецк", "NAME_EN": "Lipetsk", "NAME_RU": "Липецк", "PLACE": "city", "A_CNTR": "RU", "A_RGN": "Липецкая область", "A_DSTRCT": null, "A_PSTCD": "398000", "POPULATION": null, "num": 36.000000, "name_1": "г. Липецк", "subj": "Липецкая область", "chisl": 510152.000000, "status": "Столица", "name_clear": "Липецк", "osm_population": "510152" }, "geometry": { "type": "Point", "coordinates": [ 39.619860621991741, 52.594200882910982 ] } },
{ "type": "Feature", "properties": { "OSM_ID": -1782722.000000, "NAME": "Рязань", "NAME_EN": "Ryazan", "NAME_RU": "Рязань", "PLACE": "city", "A_CNTR": "RU", "A_RGN": "Рязанская область", "A_DSTRCT": null, "A_PSTCD": null, "POPULATION": null, "num": 32.000000, "name_1": "г. Рязань", "subj": "Рязанская область", "chisl": 532772.000000, "status": "Столица", "name_clear": "Рязань", "osm_population": "532772" }, "geometry": { "type": "Point", "coordinates": [ 39.729280627273468, 54.638103207837148 ] } },
{ "type": "Feature", "properties": { "OSM_ID": -1991003.000000, "NAME": "Владимир", "NAME_EN": "Vladimir", "NAME_RU": "Владимир", "PLACE": "city", "A_CNTR": "RU", "A_RGN": "Владимирская область", "A_DSTRCT": null, "A_PSTCD": "600000", "POPULATION": null, "num": 51.000000, "name_1": "г. Владимир", "subj": "Владимирская область", "chisl": 352681.000000, "status": "Столица", "name_clear": "Владимир", "osm_population": "352681" }, "geometry": { "type": "Point", "coordinates": [ 40.387327786637805, 56.129375899379191 ] } },
{ "type": "Feature", "properties": { "OSM_ID": -4637058.000000, "NAME": "Тамбов", "NAME_EN": "Tambov", "NAME_RU": "Тамбов", "PLACE": "city", "A_CNTR": "RU", "A_RGN": "Тамбовская область", "A_DSTRCT": null, "A_PSTCD": null, "POPULATION": null, "num": 64.000000, "name_1": "г. Тамбов", "subj": "Тамбовская область", "chisl": 288895.000000, "status": "Столица", "name_clear": "Тамбов", "osm_population": "288895" }, "geometry": { "type": "Point", "coordinates": [ 41.427303949071131, 52.727894287619606 ] } },
{ "type": "Feature", "properties": { "OSM_ID": 24900421.000000, "NAME": "Ставрополь", "NAME_EN": "Stavropol", "NAME_RU": null, "PLACE": "city", "A_CNTR": "RU", "A_RGN": "Ставропольский край", "A_DSTRCT": null, "A_PSTCD": "355000", "POPULATION": null, "num": 43.000000, "name_1": "г. Ставрополь", "subj": "Ставропольский край", "chisl": 425853.000000, "status": "Столица", "name_clear": "Ставрополь", "osm_population": "425853" }, "geometry": { "type": "Point", "coordinates": [ 41.961141910365214, 45.038891977152716 ] } },
{ "type": "Feature", "properties": { "OSM_ID": 33677767.000000, "NAME": "Черкесск", "NAME_EN": "Cherkessk", "NAME_RU": null, "PLACE": "city", "A_CNTR": "RU", "A_RGN": "Карачаево-Черкесская республика", "A_DSTRCT": null, "A_PSTCD": null, "POPULATION": null, "num": 76.000000, "name_1": "г. Черкесск", "subj": "Карачаево-Черкесская Республика", "chisl": 124187.000000, "status": "Столица", "name_clear": "Черкесск", "osm_population": "124187" }, "geometry": { "type": "Point", "coordinates": [ 42.060352197417068, 44.220194006945661 ] } },
{ "type": "Feature", "properties": { "OSM_ID": -3374737.000000, "NAME": "Волжский", "NAME_EN": "Volzhsky", "NAME_RU": null, "PLACE": "city", "A_CNTR": null, "A_RGN": null, "A_DSTRCT": null, "A_PSTCD": null, "POPULATION": null, "num": 56.000000, "name_1": "г. Волжский", "subj": "Волгоградская область", "chisl": 326602.000000, "status": null, "name_clear": "Волжский", "osm_population": "326602" }, "geometry": { "type": "Point", "coordinates": [ 44.758443345544094, 48.828681488942834 ] } },
{ "type": "Feature", "properties": { "OSM_ID": -2307824.000000, "NAME": "Саранск", "NAME_EN": "Saransk", "NAME_RU": "Саранск", "PLACE": "city", "A_CNTR": "RU", "A_RGN": "Мордовия", "A_DSTRCT": null, "A_PSTCD": "430000", "POPULATION": null, "num": 63.000000, "name_1": "г. Саранск", "subj": "Республика Мордовия", "chisl": 302285.000000, "status": "Столица", "name_clear": "Саранск", "osm_population": "302285" }, "geometry": { "type": "Point", "coordinates": [ 45.179086686997579, 54.201361650636812 ] } },
{ "type": "Feature", "properties": { "OSM_ID": -2131460.000000, "NAME": "Грозный", "NAME_EN": "Grozny", "NAME_RU": null, "PLACE": "city", "A_CNTR": null, "A_RGN": null, "A_DSTRCT": null, "A_PSTCD": null, "POPULATION": null, "num": 65.000000, "name_1": "г. Грозный", "subj": "Чеченская Республика", "chisl": 283659.000000, "status": "Столица", "name_clear": "Грозный", "osm_population": "283659" }, "geometry": { "type": "Point", "coordinates": [ 45.657101773366108, 43.320699832918457 ] } },
{ "type": "Feature", "properties": { "OSM_ID": -2049867.000000, "NAME": "Ульяновск", "NAME_EN": "Ulyanovsk", "NAME_RU": "Ульяновск", "PLACE": "city", "A_CNTR": "RU", "A_RGN": "Ульяновская область", "A_DSTRCT": null, "A_PSTCD": null, "POPULATION": null, "num": 23.000000, "name_1": "г. Ульяновск", "subj": "Ульяновская область", "chisl": 619492.000000, "status": "Столица", "name_clear": "Ульяновск", "osm_population": "619492" }, "geometry": { "type": "Point", "coordinates": [ 48.442056424106632, 54.315524358719642 ] } },
{ "type": "Feature", "properties": { "OSM_ID": -2383150.000000, "NAME": "Киров", "NAME_EN": "Kirov", "NAME_RU": null, "PLACE": "city", "A_CNTR": "RU", "A_RGN": "Кировская область", "A_DSTRCT": null, "A_PSTCD": "610000", "POPULATION": null, "num": 37.000000, "name_1": "г. Киров", "subj": "Кировская область", "chisl": 493336.000000, "status": "Столица", "name_clear": "Киров", "osm_population": "493336" }, "geometry": { "type": "Point", "coordinates": [ 49.654361484785198, 58.592753148005094 ] } },
{ "type": "Feature", "properties": { "OSM_ID": -1670935.000000, "NAME": "Ижевск", "NAME_EN": "Izhevsk", "NAME_RU": "Ижевск", "PLACE": "city", "A_CNTR": "RU", "A_RGN": "Удмуртия", "A_DSTRCT": null, "A_PSTCD": null, "POPULATION": null, "num": 20.000000, "name_1": "г. Ижевск", "subj": "Удмуртская Республика", "chisl": 642024.000000, "status": "Столица", "name_clear": "Ижевск", "osm_population": null }, "geometry": { "type": "Point", "coordinates": [ 53.184704212760451, 56.859477542152391 ] } },
{ "type": "Feature", "properties": { "OSM_ID": 166155507.000000, "NAME": "Оренбург", "NAME_EN": "Orenburg", "NAME_RU": "Оренбург", "PLACE": "city", "A_CNTR": "RU", "A_RGN": "Оренбургская область", "A_DSTRCT": null, "A_PSTCD": "460000", "POPULATION": "560046", "num": 29.000000, "name_1": "г. Оренбург", "subj": "Оренбургская область", "chisl": 561279.000000, "status": "Столица", "name_clear": "Оренбург", "osm_population": "561279" }, "geometry": { "type": "Point", "coordinates": [ 55.149754838329024, 51.799336229209125 ] } },
{ "type": "Feature", "properties": { "OSM_ID": -1555410.000000, "NAME": "Нижний Тагил", "NAME_EN": "Nizhny Tagil", "NAME_RU": "Нижний Тагил", "PLACE": "city", "A_CNTR": "RU", "A_RGN": "Свердловская область", "A_DSTRCT": "городской округ Нижний Тагил", "A_PSTCD": null, "POPULATION": null, "num": 50.000000, "name_1": "г. Нижний Тагил", "subj": "Свердловская область", "chisl": 356773.000000, "status": null, "name_clear": "Нижний Тагил", "osm_population": "356773" }, "geometry": { "type": "Point", "coordinates": [ 59.97433268695859, 57.932685995580748 ] } },
{ "type": "Feature", "properties": { "OSM_ID": 332516113.000000, "NAME": "Екатеринбург", "NAME_EN": "Yekaterinburg", "NAME_RU": "Екатеринбург", "PLACE": "city", "A_CNTR": "RU", "A_RGN": "Свердловская область", "A_DSTRCT": null, "A_PSTCD": null, "POPULATION": null, "num": 4.000000, "name_1": "г. Екатеринбург", "subj": "Свердловская область", "chisl": 1428042.000000, "status": "Столица", "name_clear": "Екатеринбург", "osm_population": "1428042" }, "geometry": { "type": "Point", "coordinates": [ 60.605883874805343, 56.825361449084646 ] } },
{ "type": "Feature", "properties": { "OSM_ID": -4442556.000000, "NAME": "Челябинск", "NAME_EN": "Chelyabinsk", "NAME_RU": "Челябинск", "PLACE": "city", "A_CNTR": "RU", "A_RGN": "Челябинская область", "A_DSTRCT": "Челябинский городской округ", "A_PSTCD": null, "POPULATION": "1183387", "num": 7.000000, "name_1": "г. Челябинск", "subj": "Челябинская область", "chisl": 1183387.000000, "status": "Столица", "name_clear": "Челябинск", "osm_population": "1183387" }, "geometry": { "type": "Point", "coordinates": [ 61.404580179296048, 55.167840834537515 ] } },
{ "type": "Feature", "properties": { "OSM_ID": -4676636.000000, "NAME": "Курган", "NAME_EN": "Kurgan", "NAME_RU": "Курган", "PLACE": "city", "A_CNTR": "RU", "A_RGN": "Курганская область", "A_DSTRCT": "городской округ Курган", "A_PSTCD": null, "POPULATION": null, "num": 57.000000, "name_1": "г. Курган", "subj": "Курганская область", "chisl": 326292.000000, "status": "Столица", "name_clear": "Курган", "osm_population": "326292" }, "geometry": { "type": "Point", "coordinates": [ 65.334544890228614, 55.42880269018449 ] } },
{ "type": "Feature", "properties": { "OSM_ID": -2049854.000000, "NAME": "Тюмень", "NAME_EN": null, "NAME_RU": null, "PLACE": "city", "A_CNTR": "RU", "A_RGN": "Тюменская область", "A_DSTRCT": "городской округ Тюмень", "A_PSTCD": null, "POPULATION": null, "num": 19.000000, "name_1": "г. Тюмень", "subj": "Тюменская область без автономных округов", "chisl": 697037.000000, "status": "Столица", "name_clear": "Тюмень", "osm_population": "697037" }, "geometry": { "type": "Point", "coordinates": [ 65.546191600164732, 57.15855382063998 ] } },
{ "type": "Feature", "properties": { "OSM_ID": -366544.000000, "NAME": "Новосибирск", "NAME_EN": "Novosibirsk", "NAME_RU": null, "PLACE": "city", "A_CNTR": "RU", "A_RGN": "Новосибирская область", "A_DSTRCT": null, "A_PSTCD": "630000", "POPULATION": null, "num": 3.000000, "name_1": "г. Новосибирск", "subj": "Новосибирская область", "chisl": 1567087.000000, "status": "Столица", "name_clear": "Новосибирск", "osm_population": "1567087" }, "geometry": { "type": "Point", "coordinates": [ 82.961778725121746, 54.988210032346068 ] } },
{ "type": "Feature", "properties": { "OSM_ID": -1550512.000000, "NAME": "Барнаул", "NAME_EN": "Barnaul", "NAME_RU": null, "PLACE": "city", "A_CNTR": "RU", "A_RGN": "Алтайский край", "A_DSTRCT": null, "A_PSTCD": "656000", "POPULATION": null, "num": 21.000000, "name_1": "г. Барнаул", "subj": "Алтайский край", "chisl": 635530.000000, "status": "Столица", "name_clear": "Барнаул", "osm_population": "635530" }, "geometry": { "type": "Point", "coordinates": [ 83.757601606897509, 53.332776525000583 ] } },
{ "type": "Feature", "properties": { "OSM_ID": 174747234.000000, "NAME": "Томск", "NAME_EN": "Tomsk", "NAME_RU": null, "PLACE": "city", "A_CNTR": "RU", "A_RGN": "Томская область", "A_DSTRCT": null, "A_PSTCD": "634000", "POPULATION": null, "num": 28.000000, "name_1": "г. Томск", "subj": "Томская область", "chisl": 564910.000000, "status": "Столица", "name_clear": "Томск", "osm_population": null }, "geometry": { "type": "Point", "coordinates": [ 85.005475974575575, 56.490575150503972 ] } },
{ "type": "Feature", "properties": { "OSM_ID": -1312868.000000, "NAME": "Кемерово", "NAME_EN": "Kemerovo", "NAME_RU": "Кемерово", "PLACE": "city", "A_CNTR": "RU", "A_RGN": "Кемеровская область", "A_DSTRCT": null, "A_PSTCD": null, "POPULATION": null, "num": 31.000000, "name_1": "г. Кемерово", "subj": "Кемеровская область", "chisl": 549159.000000, "status": "Столица", "name_clear": "Кемерово", "osm_population": null }, "geometry": { "type": "Point", "coordinates": [ 86.082058140866749, 55.379352638293433 ] } },
{ "type": "Feature", "properties": { "OSM_ID": -1430616.000000, "NAME": "Красноярск", "NAME_EN": "Krasnoyarsk", "NAME_RU": "Красноярск", "PLACE": "city", "A_CNTR": "RU", "A_RGN": "Красноярский край", "A_DSTRCT": null, "A_PSTCD": "660000", "POPULATION": null, "num": 12.000000, "name_1": "г. Красноярск", "subj": "Красноярский край", "chisl": 1052218.000000, "status": "Столица", "name_clear": "Красноярск", "osm_population": "1052218" }, "geometry": { "type": "Point", "coordinates": [ 92.885889327537896, 56.020849358786009 ] } },
{ "type": "Feature", "properties": { "OSM_ID": -1430614.000000, "NAME": "Иркутск", "NAME_EN": "Irkutsk", "NAME_RU": "Иркутск", "PLACE": "city", "A_CNTR": "RU", "A_RGN": "Иркутская область", "A_DSTRCT": null, "A_PSTCD": null, "POPULATION": null, "num": 22.000000, "name_1": "г. Иркутск", "subj": "Иркутская область", "chisl": 620099.000000, "status": "Столица", "name_clear": "Иркутск", "osm_population": "620099" }, "geometry": { "type": "Point", "coordinates": [ 104.272785567382201, 52.313422810132316 ] } },
{ "type": "Feature", "properties": { "OSM_ID": -2637037.000000, "NAME": "Чита", "NAME_EN": "Chita", "NAME_RU": "Чита", "PLACE": "city", "A_CNTR": "RU", "A_RGN": "Забайкальский край", "A_DSTRCT": "городской округ Чита", "A_PSTCD": "672000", "POPULATION": null, "num": 54.000000, "name_1": "г. Чита", "subj": "Забайкальский край", "chisl": 339453.000000, "status": "Столица", "name_clear": "Чита", "osm_population": "339453" }, "geometry": { "type": "Point", "coordinates": [ 113.495560242106677, 52.032357611696462 ] } },
{ "type": "Feature", "properties": { "OSM_ID": -2049858.000000, "NAME": "Благовещенск", "NAME_EN": "Blagoveshchensk", "NAME_RU": "Благовещенск", "PLACE": "city", "A_CNTR": "RU", "A_RGN": "Амурская область", "A_DSTRCT": "городской округ Благовещенск", "A_PSTCD": null, "POPULATION": null, "num": 73.000000, "name_1": "г. Благовещенск", "subj": "Амурская область", "chisl": 224192.000000, "status": "столица", "name_clear": "Благовещенск", "osm_population": "224192" }, "geometry": { "type": "Point", "coordinates": [ 127.596313058029281, 50.354757367086819 ] } },
{ "type": "Feature", "properties": { "OSM_ID": -1704857.000000, "NAME": "Владивосток", "NAME_EN": "Vladivostok", "NAME_RU": "Владивосток", "PLACE": "city", "A_CNTR": "RU", "A_RGN": "Приморский край", "A_DSTRCT": null, "A_PSTCD": "690000", "POPULATION": null, "num": 25.000000, "name_1": "г. Владивосток", "subj": "Приморский край", "chisl": 604602.000000, "status": "Столица", "name_clear": "Владивосток", "osm_population": "604602" }, "geometry": { "type": "Point", "coordinates": [ 132.031011662485497, 43.188432800079568 ] } },
{ "type": "Feature", "properties": { "OSM_ID": -2049848.000000, "NAME": "Хабаровск", "NAME_EN": "Khabarovsk", "NAME_RU": "Хабаровск", "PLACE": "city", "A_CNTR": "RU", "A_RGN": "Хабаровский край", "A_DSTRCT": "городской округ Хабаровск", "A_PSTCD": null, "POPULATION": null, "num": 24.000000, "name_1": "г. Хабаровск", "subj": "Хабаровский край", "chisl": 607216.000000, "status": "Столица", "name_clear": "Хабаровск", "osm_population": "607216" }, "geometry": { "type": "Point", "coordinates": [ 135.062752921098848, 48.474177401854135 ] } },
{ "type": "Feature", "properties": { "OSM_ID": -3337257.000000, "NAME": "Комсомольск-на-Амуре", "NAME_EN": "Komsomolsk-on-Amur", "NAME_RU": "Комсомольск-на-Амуре", "PLACE": "city", "A_CNTR": "RU", "A_RGN": "Хабаровский край", "A_DSTRCT": "городской округ Комсомольск-на-Амуре", "A_PSTCD": null, "POPULATION": null, "num": 72.000000, "name_1": "г. Комсомольск-на-Амуре", "subj": "Хабаровский край", "chisl": 253030.000000, "status": null, "name_clear": "Комсомольск-на-Амуре", "osm_population": "253030" }, "geometry": { "type": "Point", "coordinates": [ 137.003836587961956, 50.575934301386091 ] } },
{ "type": "Feature", "properties": { "OSM_ID": -543140.000000, "NAME": "Иваново", "NAME_EN": null, "NAME_RU": null, "PLACE": null, "A_CNTR": null, "A_RGN": null, "A_DSTRCT": null, "A_PSTCD": null, "POPULATION": null, "num": 0.000000, "name_1": null, "subj": null, "chisl": 0.000000, "status": null, "name_clear": null, "osm_population": "409285" }, "geometry": { "type": "Point", "coordinates": [ 40.984147468083002, 57.002570460645543 ] } },
{ "type": "Feature", "properties": { "OSM_ID": -2194955.000000, "NAME": "Кострома", "NAME_EN": null, "NAME_RU": null, "PLACE": null, "A_CNTR": null, "A_RGN": null, "A_DSTRCT": null, "A_PSTCD": null, "POPULATION": null, "num": 0.000000, "name_1": null, "subj": null, "chisl": 0.000000, "status": null, "name_clear": null, "osm_population": "276090" }, "geometry": { "type": "Point", "coordinates": [ 40.929720827925138, 57.779319189374107 ] } },
{ "type": "Feature", "properties": { "OSM_ID": -367666.000000, "NAME": "Казань", "NAME_EN": null, "NAME_RU": null, "PLACE": null, "A_CNTR": null, "A_RGN": null, "A_DSTRCT": null, "A_PSTCD": null, "POPULATION": null, "num": 0.000000, "name_1": null, "subj": null, "chisl": 0.000000, "status": null, "name_clear": null, "osm_population": "1205651" }, "geometry": { "type": "Point", "coordinates": [ 49.12881872435846, 55.791784936256882 ] } },
{ "type": "Feature", "properties": { "OSM_ID": -1084793.000000, "NAME": "Пермь", "NAME_EN": null, "NAME_RU": null, "PLACE": null, "A_CNTR": null, "A_RGN": null, "A_DSTRCT": null, "A_PSTCD": null, "POPULATION": null, "num": 0.000000, "name_1": null, "subj": null, "chisl": 0.000000, "status": null, "name_clear": null, "osm_population": "1036469" }, "geometry": { "type": "Point", "coordinates": [ 56.262500959043848, 58.036486293325829 ] } },
{ "type": "Feature", "properties": { "OSM_ID": 31874585.000000, "NAME": "Великий Новгород", "NAME_EN": null, "NAME_RU": null, "PLACE": null, "A_CNTR": null, "A_RGN": null, "A_DSTRCT": null, "A_PSTCD": null, "POPULATION": null, "num": 0.000000, "name_1": null, "subj": null, "chisl": 0.000000, "status": null, "name_clear": null, "osm_population": "216200" }, "geometry": { "type": "Point", "coordinates": [ 31.284197216079072, 58.564181095605534 ] } },
{ "type": "Feature", "properties": { "OSM_ID": -398551.000000, "NAME": "Уфа", "NAME_EN": null, "NAME_RU": null, "PLACE": null, "A_CNTR": null, "A_RGN": null, "A_DSTRCT": null, "A_PSTCD": null, "POPULATION": null, "num": 0.000000, "name_1": null, "subj": null, "chisl": 0.000000, "status": null, "name_clear": null, "osm_population": "1105667" }, "geometry": { "type": "Point", "coordinates": [ 56.061379161892035, 54.760612820014359 ] } },
{ "type": "Feature", "properties": { "OSM_ID": -367728.000000, "NAME": "Набережные Челны", "NAME_EN": null, "NAME_RU": null, "PLACE": null, "A_CNTR": null, "A_RGN": null, "A_DSTRCT": null, "A_PSTCD": null, "POPULATION": null, "num": 0.000000, "name_1": null, "subj": null, "chisl": 0.000000, "status": null, "name_clear": null, "osm_population": "524444" }, "geometry": { "type": "Point", "coordinates": [ 52.383421981220685, 55.709844180086513 ] } },
{ "type": "Feature", "properties": { "OSM_ID": -1558108.000000, "NAME": "Омск", "NAME_EN": null, "NAME_RU": null, "PLACE": null, "A_CNTR": null, "A_RGN": null, "A_DSTRCT": null, "A_PSTCD": null, "POPULATION": null, "num": 0.000000, "name_1": null, "subj": null, "chisl": 0.000000, "status": null, "name_clear": null, "osm_population": "1173854" }, "geometry": { "type": "Point", "coordinates": [ 73.371861101990248, 54.970999278723163 ] } },
{ "type": "Feature", "properties": { "OSM_ID": -1235082.000000, "NAME": "Калуга", "NAME_EN": null, "NAME_RU": null, "PLACE": null, "A_CNTR": null, "A_RGN": null, "A_DSTRCT": null, "A_PSTCD": null, "POPULATION": null, "num": 0.000000, "name_1": null, "subj": null, "chisl": 0.000000, "status": null, "name_clear": null, "osm_population": "342936" }, "geometry": { "type": "Point", "coordinates": [ 36.227455120735932, 54.555492892246527 ] } },
{ "type": "Feature", "properties": { "OSM_ID": -1674536.000000, "NAME": "Смоленск", "NAME_EN": null, "NAME_RU": null, "PLACE": null, "A_CNTR": null, "A_RGN": null, "A_DSTRCT": null, "A_PSTCD": null, "POPULATION": null, "num": 0.000000, "name_1": null, "subj": null, "chisl": 0.000000, "status": null, "name_clear": null, "osm_population": "330049" }, "geometry": { "type": "Point", "coordinates": [ 32.05214332606802, 54.784891485789814 ] } },
{ "type": "Feature", "properties": { "OSM_ID": -1662421.000000, "NAME": "Йошкар-Ола", "NAME_EN": null, "NAME_RU": null, "PLACE": null, "A_CNTR": null, "A_RGN": null, "A_DSTRCT": null, "A_PSTCD": null, "POPULATION": null, "num": 0.000000, "name_1": null, "subj": null, "chisl": 0.000000, "status": null, "name_clear": null, "osm_population": "263190" }, "geometry": { "type": "Point", "coordinates": [ 47.946444166324468, 56.643612668320742 ] } },
{ "type": "Feature", "properties": { "OSM_ID": -1327492.000000, "NAME": "Череповец", "NAME_EN": null, "NAME_RU": null, "PLACE": null, "A_CNTR": null, "A_RGN": null, "A_DSTRCT": null, "A_PSTCD": null, "POPULATION": null, "num": 0.000000, "name_1": null, "subj": null, "chisl": 0.000000, "status": null, "name_clear": null, "osm_population": "318107" }, "geometry": { "type": "Point", "coordinates": [ 37.888569745210418, 59.131182823237509 ] } },
{ "type": "Feature", "properties": { "OSM_ID": -1748989.000000, "NAME": "Тула", "NAME_EN": null, "NAME_RU": null, "PLACE": null, "A_CNTR": null, "A_RGN": null, "A_DSTRCT": null, "A_PSTCD": null, "POPULATION": null, "num": 0.000000, "name_1": null, "subj": null, "chisl": 0.000000, "status": null, "name_clear": null, "osm_population": "487841" }, "geometry": { "type": "Point", "coordinates": [ 37.612050758509696, 54.184675753822233 ] } },
{ "type": "Feature", "properties": { "OSM_ID": -1144811.000000, "NAME": "Воронеж", "NAME_EN": null, "NAME_RU": null, "PLACE": null, "A_CNTR": null, "A_RGN": null, "A_DSTRCT": null, "A_PSTCD": null, "POPULATION": null, "num": 0.000000, "name_1": null, "subj": null, "chisl": 0.000000, "status": null, "name_clear": null, "osm_population": "1023570" }, "geometry": { "type": "Point", "coordinates": [ 39.228989050652217, 51.670819894270174 ] } },
{ "type": "Feature", "properties": { "OSM_ID": -1746022.000000, "NAME": "Саратов", "NAME_EN": null, "NAME_RU": null, "PLACE": null, "A_CNTR": null, "A_RGN": null, "A_DSTRCT": null, "A_PSTCD": null, "POPULATION": null, "num": 0.000000, "name_1": null, "subj": null, "chisl": 0.000000, "status": null, "name_clear": null, "osm_population": null }, "geometry": { "type": "Point", "coordinates": [ 45.953412684971077, 51.555417364761375 ] } },
{ "type": "Feature", "properties": { "OSM_ID": -269701.000000, "NAME": "Краснодар", "NAME_EN": null, "NAME_RU": null, "PLACE": null, "A_CNTR": null, "A_RGN": null, "A_DSTRCT": null, "A_PSTCD": null, "POPULATION": null, "num": 0.000000, "name_1": null, "subj": null, "chisl": 0.000000, "status": null, "name_clear": null, "osm_population": "829677" }, "geometry": { "type": "Point", "coordinates": [ 39.028147043280484, 45.088339633446118 ] } },
{ "type": "Feature", "properties": { "OSM_ID": -960764.000000, "NAME": "Таганрог", "NAME_EN": null, "NAME_RU": null, "PLACE": null, "A_CNTR": null, "A_RGN": null, "A_DSTRCT": null, "A_PSTCD": null, "POPULATION": null, "num": 0.000000, "name_1": null, "subj": null, "chisl": 0.000000, "status": null, "name_clear": null, "osm_population": "253040" }, "geometry": { "type": "Point", "coordinates": [ 38.882167129608987, 47.238404560605126 ] } },
{ "type": "Feature", "properties": { "OSM_ID": -287507.000000, "NAME": "Самара", "NAME_EN": null, "NAME_RU": null, "PLACE": null, "A_CNTR": null, "A_RGN": null, "A_DSTRCT": null, "A_PSTCD": null, "POPULATION": null, "num": 0.000000, "name_1": null, "subj": null, "chisl": 0.000000, "status": null, "name_clear": null, "osm_population": "1171820" }, "geometry": { "type": "Point", "coordinates": [ 50.151016204548988, 53.272309036778154 ] } },
{ "type": "Feature", "properties": { "OSM_ID": -1791629.000000, "NAME": "Стерлитамак", "NAME_EN": null, "NAME_RU": null, "PLACE": null, "A_CNTR": null, "A_RGN": null, "A_DSTRCT": null, "A_PSTCD": null, "POPULATION": null, "num": 0.000000, "name_1": null, "subj": null, "chisl": 0.000000, "status": null, "name_clear": null, "osm_population": "278678" }, "geometry": { "type": "Point", "coordinates": [ 55.966414195350787, 53.649676740589669 ] } },
{ "type": "Feature", "properties": { "OSM_ID": -1099982.000000, "NAME": "Волгоград", "NAME_EN": null, "NAME_RU": null, "PLACE": null, "A_CNTR": null, "A_RGN": null, "A_DSTRCT": null, "A_PSTCD": null, "POPULATION": null, "num": 0.000000, "name_1": null, "subj": null, "chisl": 0.000000, "status": null, "name_clear": null, "osm_population": "1017451" }, "geometry": { "type": "Point", "coordinates": [ 44.440703583434278, 48.632074133916163 ] } },
{ "type": "Feature", "properties": { "OSM_ID": -1153293.000000, "NAME": "Новокузнецк", "NAME_EN": null, "NAME_RU": null, "PLACE": null, "A_CNTR": null, "A_RGN": null, "A_DSTRCT": null, "A_PSTCD": null, "POPULATION": null, "num": 0.000000, "name_1": null, "subj": null, "chisl": 0.000000, "status": null, "name_clear": null, "osm_population": "551056" }, "geometry": { "type": "Point", "coordinates": [ 87.191343041043936, 53.79713863316146 ] } },
{ "type": "Feature", "properties": { "OSM_ID": -1060633.000000, "NAME": "Владикавказ", "NAME_EN": null, "NAME_RU": null, "PLACE": null, "A_CNTR": null, "A_RGN": null, "A_DSTRCT": null, "A_PSTCD": null, "POPULATION": null, "num": 0.000000, "name_1": null, "subj": null, "chisl": 0.000000, "status": null, "name_clear": null, "osm_population": "308190" }, "geometry": { "type": "Point", "coordinates": [ 44.640160985999003, 42.920129699733636 ] } },
{ "type": "Feature", "properties": { "OSM_ID": -1330715.000000, "NAME": "Архангельск", "NAME_EN": null, "NAME_RU": null, "PLACE": null, "A_CNTR": null, "A_RGN": null, "A_DSTRCT": null, "A_PSTCD": null, "POPULATION": null, "num": 0.000000, "name_1": null, "subj": null, "chisl": 0.000000, "status": null, "name_clear": null, "osm_population": "350982" }, "geometry": { "type": "Point", "coordinates": [ 40.554640234643117, 64.591417797054433 ] } },
{ "type": "Feature", "properties": { "OSM_ID": -1345135.000000, "NAME": "Тольятти", "NAME_EN": null, "NAME_RU": null, "PLACE": null, "A_CNTR": null, "A_RGN": null, "A_DSTRCT": null, "A_PSTCD": null, "POPULATION": null, "num": 0.000000, "name_1": null, "subj": null, "chisl": 0.000000, "status": null, "name_clear": null, "osm_population": "719646" }, "geometry": { "type": "Point", "coordinates": [ 49.409873233055556, 53.519014293377282 ] } },
{ "type": "Feature", "properties": { "OSM_ID": 0.000000, "NAME": "Санкт-Петербург", "NAME_EN": null, "NAME_RU": null, "PLACE": null, "A_CNTR": null, "A_RGN": null, "A_DSTRCT": null, "A_PSTCD": null, "POPULATION": null, "num": 0.000000, "name_1": null, "subj": null, "chisl": 0.000000, "status": null, "name_clear": null, "osm_population": "5225690" }, "geometry": { "type": "Point", "coordinates": [ 30.309743838905131, 59.921065622216048 ] } },
{ "type": "Feature", "properties": { "OSM_ID": 0.000000, "NAME": "Вологда", "NAME_EN": null, "NAME_RU": null, "PLACE": null, "A_CNTR": null, "A_RGN": null, "A_DSTRCT": null, "A_PSTCD": null, "POPULATION": null, "num": 0.000000, "name_1": null, "subj": null, "chisl": 0.000000, "status": null, "name_clear": null, "osm_population": "311166" }, "geometry": { "type": "Point", "coordinates": [ 39.894158586938367, 59.221376560314326 ] } },
{ "type": "Feature", "properties": { "OSM_ID": 0.000000, "NAME": "Ярославль", "NAME_EN": null, "NAME_RU": null, "PLACE": null, "A_CNTR": null, "A_RGN": null, "A_DSTRCT": null, "A_PSTCD": null, "POPULATION": null, "num": 0.000000, "name_1": null, "subj": null, "chisl": 0.000000, "status": null, "name_clear": null, "osm_population": "603961" }, "geometry": { "type": "Point", "coordinates": [ 39.857139025326958, 57.633154663910084 ] } },
{ "type": "Feature", "properties": { "OSM_ID": 0.000000, "NAME": "Тверь", "NAME_EN": null, "NAME_RU": null, "PLACE": null, "A_CNTR": null, "A_RGN": null, "A_DSTRCT": null, "A_PSTCD": null, "POPULATION": null, "num": 0.000000, "name_1": null, "subj": null, "chisl": 0.000000, "status": null, "name_clear": null, "osm_population": "414006" }, "geometry": { "type": "Point", "coordinates": [ 35.898910647811462, 56.851393389261595 ] } },
{ "type": "Feature", "properties": { "OSM_ID": 0.000000, "NAME": "Астрахань", "NAME_EN": null, "NAME_RU": null, "PLACE": null, "A_CNTR": null, "A_RGN": null, "A_DSTRCT": null, "A_PSTCD": null, "POPULATION": null, "num": 0.000000, "name_1": null, "subj": null, "chisl": 0.000000, "status": null, "name_clear": null, "osm_population": "532699" }, "geometry": { "type": "Point", "coordinates": [ 48.038236474606762, 46.362653817254831 ] } },
{ "type": "Feature", "properties": { "OSM_ID": 0.000000, "NAME": "Пенза", "NAME_EN": null, "NAME_RU": null, "PLACE": null, "A_CNTR": null, "A_RGN": null, "A_DSTRCT": null, "A_PSTCD": null, "POPULATION": null, "num": 0.000000, "name_1": null, "subj": null, "chisl": 0.000000, "status": null, "name_clear": null, "osm_population": "522823" }, "geometry": { "type": "Point", "coordinates": [ 45.031872750824334, 53.213307666480439 ] } },
{ "type": "Feature", "properties": { "OSM_ID": 0.000000, "NAME": "Нижний Новгород", "NAME_EN": null, "NAME_RU": null, "PLACE": null, "A_CNTR": null, "A_RGN": null, "A_DSTRCT": null, "A_PSTCD": null, "POPULATION": null, "num": 0.000000, "name_1": null, "subj": null, "chisl": 0.000000, "status": null, "name_clear": null, "osm_population": "1267760" }, "geometry": { "type": "Point", "coordinates": [ 43.893150529857472, 56.294188663522881 ] } },
{ "type": "Feature", "properties": { "OSM_ID": 0.000000, "NAME": "Москва", "NAME_EN": null, "NAME_RU": null, "PLACE": null, "A_CNTR": null, "A_RGN": null, "A_DSTRCT": null, "A_PSTCD": null, "POPULATION": null, "num": 0.000000, "name_1": null, "subj": null, "chisl": 0.000000, "status": null, "name_clear": null, "osm_population": "12108257" }, "geometry": { "type": "Point", "coordinates": [ 37.603082991043415, 55.742105057975536 ] } },
{ "type": "Feature", "properties": { "OSM_ID": 0.000000, "NAME": "Махачкала", "NAME_EN": null, "NAME_RU": null, "PLACE": null, "A_CNTR": null, "A_RGN": null, "A_DSTRCT": null, "A_PSTCD": null, "POPULATION": null, "num": 0.000000, "name_1": null, "subj": null, "chisl": 0.000000, "status": null, "name_clear": null, "osm_population": "583233" }, "geometry": { "type": "Point", "coordinates": [ 47.497409351830989, 42.963732139232505 ] } },
{ "type": "Feature", "properties": { "OSM_ID": 0.000000, "NAME": "Улан - Удэ", "NAME_EN": null, "NAME_RU": null, "PLACE": null, "A_CNTR": null, "A_RGN": null, "A_DSTRCT": null, "A_PSTCD": null, "POPULATION": null, "num": 0.000000, "name_1": null, "subj": null, "chisl": 0.000000, "status": null, "name_clear": null, "osm_population": null }, "geometry": { "type": "Point", "coordinates": [ 107.65576329283536, 51.836639265489048 ] } },
{ "type": "Feature", "properties": { "OSM_ID": 0.000000, "NAME": "Чебоксары", "NAME_EN": null, "NAME_RU": null, "PLACE": null, "A_CNTR": null, "A_RGN": null, "A_DSTRCT": null, "A_PSTCD": null, "POPULATION": null, "num": 0.000000, "name_1": null, "subj": null, "chisl": 0.000000, "status": null, "name_clear": null, "osm_population": null }, "geometry": { "type": "Point", "coordinates": [ 47.247171765303477, 56.114052424608559 ] } },
{ "type": "Feature", "properties": { "OSM_ID": 0.000000, "NAME": "Магнитогорск", "NAME_EN": "Magnitogorsk", "NAME_RU": "Магнитогорск", "PLACE": "city", "A_CNTR": null, "A_RGN": null, "A_DSTRCT": null, "A_PSTCD": null, "POPULATION": null, "num": 0.000000, "name_1": null, "subj": null, "chisl": 0.000000, "status": null, "name_clear": null, "osm_population": "419100" }, "geometry": { "type": "Point", "coordinates": [ 59.039371420521888, 53.399248278895932 ] } }
]
}
