{
"type": "FeatureCollection",
"crs": { "type": "name", "properties": { "name": "urn:ogc:def:crs:OGC:1.3:CRS84" } },
                                                                                
"features": [
{ "type": "Feature", "properties": { "name": "Волга", "latitude": 55.889659, "longitude": 37.540549 }, "geometry": { "type": "Point", "coordinates": [ 37.540549, 55.889659 ] } },
{ "type": "Feature", "properties": { "name": "Будапешт", "latitude": 55.897364, "longitude": 37.604517 }, "geometry": { "type": "Point", "coordinates": [ 37.604517, 55.897364 ] } },
{ "type": "Feature", "properties": { "name": "Ладога", "latitude": 55.886615, "longitude": 37.659541 }, "geometry": { "type": "Point", "coordinates": [ 37.659541, 55.886615 ] } },
{ "type": "Feature", "properties": { "name": "Орион", "latitude": 55.869138, "longitude": 37.677211 }, "geometry": { "type": "Point", "coordinates": [ 37.677211, 55.869138 ] } },
{ "type": "Feature", "properties": { "name": "Марс", "latitude": 55.878772, "longitude": 37.582032 }, "geometry": { "type": "Point", "coordinates": [ 37.582032, 55.878772 ] } },
{ "type": "Feature", "properties": { "name": "Байконур", "latitude": 55.864639, "longitude": 37.605143 }, "geometry": { "type": "Point", "coordinates": [ 37.605143, 55.864639 ] } },
{ "type": "Feature", "properties": { "name": "Рига", "latitude": 55.844944, "longitude": 37.583493 }, "geometry": { "type": "Point", "coordinates": [ 37.583493, 55.844944 ] } },
{ "type": "Feature", "properties": { "name": "Комсомолец", "latitude": 55.840768, "longitude": 37.569475 }, "geometry": { "type": "Point", "coordinates": [ 37.569475, 55.840768 ] } },
{ "type": "Feature", "properties": { "name": "Нева", "latitude": 55.862852, "longitude": 37.471037 }, "geometry": { "type": "Point", "coordinates": [ 37.471037, 55.862852 ] } },
{ "type": "Feature", "properties": { "name": "Варшава", "latitude": 55.820099, "longitude": 37.500528 }, "geometry": { "type": "Point", "coordinates": [ 37.500528, 55.820099 ] } },
{ "type": "Feature", "properties": { "name": "Рассвет", "latitude": 55.824050, "longitude": 37.518301 }, "geometry": { "type": "Point", "coordinates": [ 37.518301, 55.82405 ] } },
{ "type": "Feature", "properties": { "name": "Баку", "latitude": 55.806201, "longitude": 37.527904 }, "geometry": { "type": "Point", "coordinates": [ 37.527904, 55.806201 ] } },
{ "type": "Feature", "properties": { "name": "Прага", "latitude": 55.792569, "longitude": 37.578154 }, "geometry": { "type": "Point", "coordinates": [ 37.578154, 55.792569 ] } },
{ "type": "Feature", "properties": { "name": "Патриот", "latitude": 55.774715, "longitude": 37.467245 }, "geometry": { "type": "Point", "coordinates": [ 37.467245, 55.774715 ] } },
{ "type": "Feature", "properties": { "name": "Янтарь", "latitude": 55.809037, "longitude": 37.730135 }, "geometry": { "type": "Point", "coordinates": [ 37.730135, 55.809037 ] } },
{ "type": "Feature", "properties": { "name": "Родина", "latitude": 55.781568, "longitude": 37.718120 }, "geometry": { "type": "Point", "coordinates": [ 37.71812, 55.781568 ] } },
{ "type": "Feature", "properties": { "name": "София", "latitude": 55.803767, "longitude": 37.800938 }, "geometry": { "type": "Point", "coordinates": [ 37.800938, 55.803767 ] } },
{ "type": "Feature", "properties": { "name": "Первомайский", "latitude": 55.793803, "longitude": 37.806594 }, "geometry": { "type": "Point", "coordinates": [ 37.806594, 55.793803 ] } },
{ "type": "Feature", "properties": { "name": "Саяны", "latitude": 55.768390, "longitude": 37.832863 }, "geometry": { "type": "Point", "coordinates": [ 37.832863, 55.76839 ] } },
{ "type": "Feature", "properties": { "name": "Киргизия", "latitude": 55.751748, "longitude": 37.820622 }, "geometry": { "type": "Point", "coordinates": [ 37.820622, 55.751748 ] } },
{ "type": "Feature", "properties": { "name": "Восход", "latitude": 55.726498, "longitude": 37.771479 }, "geometry": { "type": "Point", "coordinates": [ 37.771479, 55.726498 ] } },
{ "type": "Feature", "properties": { "name": "Волгоград", "latitude": 55.706441, "longitude": 37.818962 }, "geometry": { "type": "Point", "coordinates": [ 37.818962, 55.706441 ] } },
{ "type": "Feature", "properties": { "name": "Высота", "latitude": 55.706441, "longitude": 37.818962 }, "geometry": { "type": "Point", "coordinates": [ 37.818962, 55.706441 ] } },
{ "type": "Feature", "properties": { "name": "Орбита", "latitude": 55.676242, "longitude": 37.665622 }, "geometry": { "type": "Point", "coordinates": [ 37.665622, 55.676242 ] } },
{ "type": "Feature", "properties": { "name": "Мечта", "latitude": 55.648606, "longitude": 37.662023 }, "geometry": { "type": "Point", "coordinates": [ 37.662023, 55.648606 ] } },
{ "type": "Feature", "properties": { "name": "Эльбрус", "latitude": 55.630985, "longitude": 37.670464 }, "geometry": { "type": "Point", "coordinates": [ 37.670464, 55.630985 ] } },
{ "type": "Feature", "properties": { "name": "Экран", "latitude": 55.647538, "longitude": 37.724818 }, "geometry": { "type": "Point", "coordinates": [ 37.724818, 55.647538 ] } },
{ "type": "Feature", "properties": { "name": "Керчь", "latitude": 55.595754, "longitude": 37.664415 }, "geometry": { "type": "Point", "coordinates": [ 37.664415, 55.595754 ] } },
{ "type": "Feature", "properties": { "name": "Бирюсинка", "latitude": 55.579579, "longitude": 37.649134 }, "geometry": { "type": "Point", "coordinates": [ 37.649134, 55.579579 ] } },
{ "type": "Feature", "properties": { "name": "Алмаз", "latitude": 55.712038, "longitude": 37.605823 }, "geometry": { "type": "Point", "coordinates": [ 37.605823, 55.712038 ] } },
{ "type": "Feature", "properties": { "name": "Таллин", "latitude": 55.675019, "longitude": 37.592256 }, "geometry": { "type": "Point", "coordinates": [ 37.592256, 55.675019 ] } },
{ "type": "Feature", "properties": { "name": "Ангара", "latitude": 55.651463, "longitude": 37.612226 }, "geometry": { "type": "Point", "coordinates": [ 37.612226, 55.651463 ] } },
{ "type": "Feature", "properties": { "name": "Ашхабад", "latitude": 55.624021, "longitude": 37.597525 }, "geometry": { "type": "Point", "coordinates": [ 37.597525, 55.624021 ] } },
{ "type": "Feature", "properties": { "name": "Улан-Батор", "latitude": 55.689675, "longitude": 37.578205 }, "geometry": { "type": "Point", "coordinates": [ 37.578205, 55.689675 ] } },
{ "type": "Feature", "properties": { "name": "Аврора", "latitude": 55.621473, "longitude": 37.504775 }, "geometry": { "type": "Point", "coordinates": [ 37.504775, 55.621473 ] } },
{ "type": "Feature", "properties": { "name": "Витязь", "latitude": 55.647351, "longitude": 37.517174 }, "geometry": { "type": "Point", "coordinates": [ 37.517174, 55.647351 ] } },
{ "type": "Feature", "properties": { "name": "Звёздный", "latitude": 55.677087, "longitude": 37.505146 }, "geometry": { "type": "Point", "coordinates": [ 37.505146, 55.677087 ] } },
{ "type": "Feature", "properties": { "name": "Планета", "latitude": 55.707815, "longitude": 37.473602 }, "geometry": { "type": "Point", "coordinates": [ 37.473602, 55.707815 ] } },
{ "type": "Feature", "properties": { "name": "Солнцево", "latitude": 55.652793, "longitude": 37.393060 }, "geometry": { "type": "Point", "coordinates": [ 37.39306, 55.652793 ] } }
]
}
