{"type":"FeatureCollection","crs":{"type":"name","properties":{"name":"urn:ogc:def:crs:OGC:1.3:CRS84"}},"features":[{"geometry":{"coordinates":[37.515108190036,55.804152103016],"type":"Point"},"properties":{"global_id":3067902,"system_object_id":"211","ID":211,"Name":"Стационарный общественный туалет № 175","AdmArea":"Северный административный округ","District":"район Сокол","Location":"Ленинградский проспект, дом 71А","LocationClarification":null,"CloseFlag":"действует","CloseReason":null,"WorkingHours":[{"global_id":1065,"global_object_id":3067902,"system_object_id":null,"DayOfWeek":"понедельник","Hours":"08:00-20:00"},{"global_id":1066,"global_object_id":3067902,"system_object_id":null,"DayOfWeek":"вторник","Hours":"08:00-20:00"},{"global_id":1067,"global_object_id":3067902,"system_object_id":null,"DayOfWeek":"среда","Hours":"08:00-20:00"},{"global_id":1068,"global_object_id":3067902,"system_object_id":null,"DayOfWeek":"четверг","Hours":"08:00-20:00"},{"global_id":1069,"global_object_id":3067902,"system_object_id":null,"DayOfWeek":"пятница","Hours":"08:00-20:00"},{"global_id":1070,"global_object_id":3067902,"system_object_id":null,"DayOfWeek":"суббота","Hours":"08:00-20:00"},{"global_id":1071,"global_object_id":3067902,"system_object_id":null,"DayOfWeek":"воскресенье","Hours":"08:00-20:00"}],"ClarificationOfWorkingHours":null,"PaidService":"бесплатный","DisabilityFriendly":"не приспособлен","BalanceHolderName":"ГБУ ДОРИНВЕСТ","UNOM":"2112051","EntryState":"активна","EntryAddReason":null,"EntryModifyReason":[],"EntryDeleteReason":null,"ParentEntries":[],"ChildEntries":[],"geoData":{"type":"Point","coordinates":[37.515108190036,55.804152103016]},"dataset":"Стационарные общественные туалеты"},"type":"Feature"},{"geometry":{"coordinates":[37.517345574171,55.825677585646],"type":"Point"},"properties":{"global_id":3067916,"system_object_id":"194","ID":194,"Name":"Стационарный общественный туалет № 97","AdmArea":"Северный административный округ","District":"район Коптево","Location":"Новопетровская улица, дом 6А","LocationClarification":null,"CloseFlag":"закрыт","CloseReason":"По техническим причинам","WorkingHours":[{"global_id":1184,"global_object_id":3067916,"system_object_id":null,"DayOfWeek":"понедельник","Hours":"08:00-22:00"},{"global_id":1185,"global_object_id":3067916,"system_object_id":null,"DayOfWeek":"вторник","Hours":"08:00-22:00"},{"global_id":1186,"global_object_id":3067916,"system_object_id":null,"DayOfWeek":"среда","Hours":"08:00-22:00"},{"global_id":1187,"global_object_id":3067916,"system_object_id":null,"DayOfWeek":"четверг","Hours":"08:00-22:00"},{"global_id":1188,"global_object_id":3067916,"system_object_id":null,"DayOfWeek":"пятница","Hours":"08:00-22:00"},{"global_id":1189,"global_object_id":3067916,"system_object_id":null,"DayOfWeek":"суббота","Hours":"08:00-22:00"},{"global_id":1190,"global_object_id":3067916,"system_object_id":null,"DayOfWeek":"воскресенье","Hours":"08:00-22:00"}],"ClarificationOfWorkingHours":null,"PaidService":"бесплатный","DisabilityFriendly":"не приспособлен","BalanceHolderName":"ГБУ ДОРИНВЕСТ","UNOM":"3500975","EntryState":"активна","EntryAddReason":null,"EntryModifyReason":[],"EntryDeleteReason":null,"ParentEntries":[],"ChildEntries":[],"geoData":{"type":"Point","coordinates":[37.517345574171,55.825677585646]},"dataset":"Стационарные общественные туалеты"},"type":"Feature"},{"geometry":{"coordinates":[37.497852723955,55.815468477512],"type":"Point"},"properties":{"global_id":3067825,"system_object_id":"214","ID":214,"Name":"Стационарный общественный туалет № 180","AdmArea":"Северный административный округ","District":"Войковский район","Location":"1-й Войковский проезд, дом 4, сооружение 1","LocationClarification":null,"CloseFlag":"действует","CloseReason":null,"WorkingHours":[{"global_id":512,"global_object_id":3067825,"system_object_id":null,"DayOfWeek":"понедельник","Hours":"08:00-20:00"},{"global_id":513,"global_object_id":3067825,"system_object_id":null,"DayOfWeek":"вторник","Hours":"08:00-20:00"},{"global_id":514,"global_object_id":3067825,"system_object_id":null,"DayOfWeek":"среда","Hours":"08:00-20:00"},{"global_id":515,"global_object_id":3067825,"system_object_id":null,"DayOfWeek":"четверг","Hours":"08:00-20:00"},{"global_id":516,"global_object_id":3067825,"system_object_id":null,"DayOfWeek":"пятница","Hours":"08:00-20:00"},{"global_id":517,"global_object_id":3067825,"system_object_id":null,"DayOfWeek":"суббота","Hours":"08:00-20:00"},{"global_id":518,"global_object_id":3067825,"system_object_id":null,"DayOfWeek":"воскресенье","Hours":"08:00-20:00"}],"ClarificationOfWorkingHours":null,"PaidService":"бесплатный","DisabilityFriendly":"приспособлен","BalanceHolderName":"ГБУ ДОРИНВЕСТ","UNOM":"3403156","EntryState":"активна","EntryAddReason":null,"EntryModifyReason":[],"EntryDeleteReason":null,"ParentEntries":[],"ChildEntries":[],"geoData":{"type":"Point","coordinates":[37.497852723955,55.815468477512]},"dataset":"Стационарные общественные туалеты"},"type":"Feature"},{"geometry":{"coordinates":[37.512653969678,55.80284657409],"type":"Point"},"properties":{"global_id":3067894,"system_object_id":"179","ID":179,"Name":"Стационарный общественный туалет № 174","AdmArea":"Северный административный округ","District":"район Сокол","Location":"Песчаная улица, дом 10, строение 13","LocationClarification":null,"CloseFlag":"закрыт","CloseReason":"По техническим причинам","WorkingHours":[{"global_id":988,"global_object_id":3067894,"system_object_id":null,"DayOfWeek":"понедельник","Hours":"08:00-18:00"},{"global_id":989,"global_object_id":3067894,"system_object_id":null,"DayOfWeek":"вторник","Hours":"08:00-18:00"},{"global_id":990,"global_object_id":3067894,"system_object_id":null,"DayOfWeek":"среда","Hours":"08:00-18:00"},{"global_id":991,"global_object_id":3067894,"system_object_id":null,"DayOfWeek":"четверг","Hours":"08:00-18:00"},{"global_id":992,"global_object_id":3067894,"system_object_id":null,"DayOfWeek":"пятница","Hours":"08:00-18:00"},{"global_id":993,"global_object_id":3067894,"system_object_id":null,"DayOfWeek":"суббота","Hours":"08:00-18:00"},{"global_id":994,"global_object_id":3067894,"system_object_id":null,"DayOfWeek":"воскресенье","Hours":"08:00-18:00"}],"ClarificationOfWorkingHours":null,"PaidService":"бесплатный","DisabilityFriendly":"не приспособлен","BalanceHolderName":"ГБУ ДОРИНВЕСТ","UNOM":"3403371","EntryState":"активна","EntryAddReason":null,"EntryModifyReason":[],"EntryDeleteReason":null,"ParentEntries":[],"ChildEntries":[],"geoData":{"type":"Point","coordinates":[37.512653969678,55.80284657409]},"dataset":"Стационарные общественные туалеты"},"type":"Feature"},{"geometry":{"coordinates":[37.467540977882,55.80816072515],"type":"Point"},"properties":{"global_id":3067780,"system_object_id":"122","ID":122,"Name":"Стационарный общественный туалет № 37","AdmArea":"Северо-Западный административный округ","District":"район Щукино","Location":"Щукинская улица, дом 5А","LocationClarification":null,"CloseFlag":"действует","CloseReason":null,"WorkingHours":[{"global_id":204,"global_object_id":3067780,"system_object_id":null,"DayOfWeek":"понедельник","Hours":"08:00-20:00"},{"global_id":205,"global_object_id":3067780,"system_object_id":null,"DayOfWeek":"вторник","Hours":"08:00-20:00"},{"global_id":206,"global_object_id":3067780,"system_object_id":null,"DayOfWeek":"среда","Hours":"08:00-20:00"},{"global_id":207,"global_object_id":3067780,"system_object_id":null,"DayOfWeek":"четверг","Hours":"08:00-20:00"},{"global_id":208,"global_object_id":3067780,"system_object_id":null,"DayOfWeek":"пятница","Hours":"08:00-20:00"},{"global_id":209,"global_object_id":3067780,"system_object_id":null,"DayOfWeek":"суббота","Hours":"08:00-20:00"},{"global_id":210,"global_object_id":3067780,"system_object_id":null,"DayOfWeek":"воскресенье","Hours":"08:00-20:00"}],"ClarificationOfWorkingHours":null,"PaidService":"бесплатный","DisabilityFriendly":"приспособлен","BalanceHolderName":"ГБУ Доринвест","UNOM":"2109859","EntryState":"активна","EntryAddReason":null,"EntryModifyReason":[],"EntryDeleteReason":null,"ParentEntries":[],"ChildEntries":[],"geoData":{"type":"Point","coordinates":[37.467540977882,55.80816072515]},"dataset":"Стационарные общественные туалеты"},"type":"Feature"},{"geometry":{"coordinates":[37.454763339073,55.82984438939],"type":"Point"},"properties":{"global_id":3067791,"system_object_id":"123","ID":123,"Name":"Стационарный общественный туалет № 100","AdmArea":"Северо-Западный административный округ","District":"район Покровское-Стрешнево","Location":"улица Долгова, дом 1, строение 5","LocationClarification":null,"CloseFlag":"действует","CloseReason":null,"WorkingHours":[{"global_id":323,"global_object_id":3067791,"system_object_id":null,"DayOfWeek":"понедельник","Hours":"09:00-19:00"},{"global_id":324,"global_object_id":3067791,"system_object_id":null,"DayOfWeek":"вторник","Hours":"09:00-19:00"},{"global_id":325,"global_object_id":3067791,"system_object_id":null,"DayOfWeek":"среда","Hours":"09:00-19:00"},{"global_id":326,"global_object_id":3067791,"system_object_id":null,"DayOfWeek":"четверг","Hours":"09:00-19:00"},{"global_id":327,"global_object_id":3067791,"system_object_id":null,"DayOfWeek":"пятница","Hours":"09:00-19:00"},{"global_id":328,"global_object_id":3067791,"system_object_id":null,"DayOfWeek":"суббота","Hours":"09:00-19:00"},{"global_id":329,"global_object_id":3067791,"system_object_id":null,"DayOfWeek":"воскресенье","Hours":"09:00-19:00"}],"ClarificationOfWorkingHours":null,"PaidService":"бесплатный","DisabilityFriendly":"не приспособлен","BalanceHolderName":"ГБУ Доринвест","UNOM":"330010","EntryState":"активна","EntryAddReason":null,"EntryModifyReason":[],"EntryDeleteReason":null,"ParentEntries":[],"ChildEntries":[],"geoData":{"type":"Point","coordinates":[37.454763339073,55.82984438939]},"dataset":"Стационарные общественные туалеты"},"type":"Feature"},{"geometry":{"coordinates":[37.475906267896,55.804694583638],"type":"Point"},"properties":{"global_id":3067790,"system_object_id":"121","ID":121,"Name":"Стационарный общественный туалет № 36","AdmArea":"Северо-Западный административный округ","District":"район Щукино","Location":"улица Академика Курчатова, дом 2","LocationClarification":null,"CloseFlag":"действует","CloseReason":null,"WorkingHours":[{"global_id":316,"global_object_id":3067790,"system_object_id":null,"DayOfWeek":"понедельник","Hours":"09:00-17:00"},{"global_id":317,"global_object_id":3067790,"system_object_id":null,"DayOfWeek":"вторник","Hours":"09:00-17:00"},{"global_id":318,"global_object_id":3067790,"system_object_id":null,"DayOfWeek":"среда","Hours":"09:00-17:00"},{"global_id":319,"global_object_id":3067790,"system_object_id":null,"DayOfWeek":"четверг","Hours":"09:00-17:00"},{"global_id":320,"global_object_id":3067790,"system_object_id":null,"DayOfWeek":"пятница","Hours":"09:00-17:00"},{"global_id":321,"global_object_id":3067790,"system_object_id":null,"DayOfWeek":"суббота","Hours":"09:00-17:00"},{"global_id":322,"global_object_id":3067790,"system_object_id":null,"DayOfWeek":"воскресенье","Hours":"09:00-17:00"}],"ClarificationOfWorkingHours":null,"PaidService":"бесплатный","DisabilityFriendly":"не приспособлен","BalanceHolderName":"ГБУ Доринвест","UNOM":"2136761","EntryState":"активна","EntryAddReason":null,"EntryModifyReason":[],"EntryDeleteReason":null,"ParentEntries":[],"ChildEntries":[],"geoData":{"type":"Point","coordinates":[37.475906267896,55.804694583638]},"dataset":"Стационарные общественные туалеты"},"type":"Feature"},{"geometry":{"coordinates":[37.50093273616,55.820492484297],"type":"Point"},"properties":{"global_id":3067824,"system_object_id":"212","ID":212,"Name":"Стационарный общественный туалет № 93","AdmArea":"Северный административный округ","District":"Войковский район","Location":"Старопетровский проезд, дом 2, строение 3","LocationClarification":null,"CloseFlag":"действует","CloseReason":null,"WorkingHours":[{"global_id":505,"global_object_id":3067824,"system_object_id":null,"DayOfWeek":"понедельник","Hours":"08:00-18:00"},{"global_id":506,"global_object_id":3067824,"system_object_id":null,"DayOfWeek":"вторник","Hours":"08:00-18:00"},{"global_id":507,"global_object_id":3067824,"system_object_id":null,"DayOfWeek":"среда","Hours":"08:00-18:00"},{"global_id":508,"global_object_id":3067824,"system_object_id":null,"DayOfWeek":"четверг","Hours":"08:00-18:00"},{"global_id":509,"global_object_id":3067824,"system_object_id":null,"DayOfWeek":"пятница","Hours":"08:00-18:00"},{"global_id":510,"global_object_id":3067824,"system_object_id":null,"DayOfWeek":"суббота","Hours":"08:00-18:00"},{"global_id":511,"global_object_id":3067824,"system_object_id":null,"DayOfWeek":"воскресенье","Hours":"08:00-18:00"}],"ClarificationOfWorkingHours":null,"PaidService":"бесплатный","DisabilityFriendly":"приспособлен","BalanceHolderName":"ГБУ ДОРИНВЕСТ","UNOM":"3401907","EntryState":"активна","EntryAddReason":null,"EntryModifyReason":[],"EntryDeleteReason":null,"ParentEntries":[],"ChildEntries":[],"geoData":{"type":"Point","coordinates":[37.50093273616,55.820492484297]},"dataset":"Стационарные общественные туалеты"},"type":"Feature"}]}