{"type":"FeatureCollection","crs":{"type":"name","properties":{"name":"urn:ogc:def:crs:OGC:1.3:CRS84"}},"features":[{"geometry":{"coordinates":[37.752951736642,55.755151385451],"type":"Point"},"properties":{"global_id":3067930,"system_object_id":"67","ID":67,"Name":"Стационарный общественный туалет № 130","AdmArea":"Восточный административный округ","District":"район Перово","Location":"Электродная улица, дом 1А","LocationClarification":null,"CloseFlag":"закрыт","CloseReason":"По техническим причинам","WorkingHours":[{"global_id":1275,"global_object_id":3067930,"system_object_id":null,"DayOfWeek":"понедельник","Hours":"08:00-18:00"},{"global_id":1276,"global_object_id":3067930,"system_object_id":null,"DayOfWeek":"вторник","Hours":"08:00-18:00"},{"global_id":1277,"global_object_id":3067930,"system_object_id":null,"DayOfWeek":"среда","Hours":"08:00-18:00"},{"global_id":1278,"global_object_id":3067930,"system_object_id":null,"DayOfWeek":"четверг","Hours":"08:00-18:00"},{"global_id":1279,"global_object_id":3067930,"system_object_id":null,"DayOfWeek":"пятница","Hours":"08:00-18:00"},{"global_id":1280,"global_object_id":3067930,"system_object_id":null,"DayOfWeek":"суббота","Hours":"08:00-18:00"},{"global_id":1281,"global_object_id":3067930,"system_object_id":null,"DayOfWeek":"воскресенье","Hours":"08:00-18:00"}],"ClarificationOfWorkingHours":null,"PaidService":"бесплатный","DisabilityFriendly":"не приспособлен","BalanceHolderName":"ГБУ ДОРИНВЕСТ","UNOM":"2102359","EntryState":"активна","EntryAddReason":null,"EntryModifyReason":[],"EntryDeleteReason":null,"ParentEntries":[],"ChildEntries":[],"geoData":{"type":"Point","coordinates":[37.752951736642,55.755151385451]},"dataset":"Стационарные общественные туалеты"},"type":"Feature"},{"geometry":{"coordinates":[37.766590899737,55.702617454251],"type":"Point"},"properties":{"global_id":3067944,"system_object_id":"50","ID":50,"Name":"Стационарный общественный туалет № 150","AdmArea":"Юго-Восточный административный округ","District":"район Кузьминки","Location":"Зеленодольская улица, дом 43","LocationClarification":null,"CloseFlag":"действует","CloseReason":null,"WorkingHours":[{"global_id":1366,"global_object_id":3067944,"system_object_id":null,"DayOfWeek":"понедельник","Hours":"08:00-20:00"},{"global_id":1367,"global_object_id":3067944,"system_object_id":null,"DayOfWeek":"вторник","Hours":"08:00-20:00"},{"global_id":1368,"global_object_id":3067944,"system_object_id":null,"DayOfWeek":"среда","Hours":"08:00-20:00"},{"global_id":1369,"global_object_id":3067944,"system_object_id":null,"DayOfWeek":"четверг","Hours":"08:00-20:00"},{"global_id":1370,"global_object_id":3067944,"system_object_id":null,"DayOfWeek":"пятница","Hours":"08:00-20:00"},{"global_id":1371,"global_object_id":3067944,"system_object_id":null,"DayOfWeek":"суббота","Hours":"08:00-20:00"},{"global_id":1372,"global_object_id":3067944,"system_object_id":null,"DayOfWeek":"воскресенье","Hours":"08:00-20:00"}],"ClarificationOfWorkingHours":null,"PaidService":"бесплатный","DisabilityFriendly":"приспособлен","BalanceHolderName":"ГБУ ДОРИНВЕСТ","UNOM":"2705864","EntryState":"активна","EntryAddReason":null,"EntryModifyReason":[],"EntryDeleteReason":null,"ParentEntries":[],"ChildEntries":[],"geoData":{"type":"Point","coordinates":[37.766590899737,55.702617454251]},"dataset":"Стационарные общественные туалеты"},"type":"Feature"},{"geometry":{"coordinates":[37.796900825624,55.705054926181],"type":"Point"},"properties":{"global_id":3067945,"system_object_id":"51","ID":51,"Name":"Стационарный общественный туалет № 194","AdmArea":"Юго-Восточный административный округ","District":"район Выхино-Жулебино","Location":"улица Академика Скрябина, владение 19","LocationClarification":null,"CloseFlag":"действует","CloseReason":null,"WorkingHours":[{"global_id":1373,"global_object_id":3067945,"system_object_id":null,"DayOfWeek":"понедельник","Hours":"08:00-20:00"},{"global_id":1374,"global_object_id":3067945,"system_object_id":null,"DayOfWeek":"вторник","Hours":"08:00-20:00"},{"global_id":1375,"global_object_id":3067945,"system_object_id":null,"DayOfWeek":"среда","Hours":"08:00-20:00"},{"global_id":1376,"global_object_id":3067945,"system_object_id":null,"DayOfWeek":"четверг","Hours":"08:00-20:00"},{"global_id":1377,"global_object_id":3067945,"system_object_id":null,"DayOfWeek":"пятница","Hours":"08:00-20:00"},{"global_id":1378,"global_object_id":3067945,"system_object_id":null,"DayOfWeek":"суббота","Hours":"08:00-20:00"},{"global_id":1379,"global_object_id":3067945,"system_object_id":null,"DayOfWeek":"воскресенье","Hours":"08:00-20:00"}],"ClarificationOfWorkingHours":null,"PaidService":"бесплатный","DisabilityFriendly":"приспособлен","BalanceHolderName":"Собственность города не оформлена, в эксплуатации ГБУ Доринвест","UNOM":"2128818","EntryState":"активна","EntryAddReason":null,"EntryModifyReason":[],"EntryDeleteReason":null,"ParentEntries":[],"ChildEntries":[],"geoData":{"type":"Point","coordinates":[37.796900825624,55.705054926181]},"dataset":"Стационарные общественные туалеты"},"type":"Feature"},{"geometry":{"coordinates":[37.730458346306,55.707114253638],"type":"Point"},"properties":{"global_id":3067946,"system_object_id":"52","ID":52,"Name":"Стационарный общественный туалет № 155","AdmArea":"Юго-Восточный административный округ","District":"район Текстильщики","Location":"Люблинская улица, дом 4, сооружение 1","LocationClarification":null,"CloseFlag":"действует","CloseReason":null,"WorkingHours":[{"global_id":1380,"global_object_id":3067946,"system_object_id":null,"DayOfWeek":"понедельник","Hours":"08:00-20:00"},{"global_id":1381,"global_object_id":3067946,"system_object_id":null,"DayOfWeek":"вторник","Hours":"08:00-20:00"},{"global_id":1382,"global_object_id":3067946,"system_object_id":null,"DayOfWeek":"среда","Hours":"08:00-20:00"},{"global_id":1383,"global_object_id":3067946,"system_object_id":null,"DayOfWeek":"четверг","Hours":"08:00-20:00"},{"global_id":1384,"global_object_id":3067946,"system_object_id":null,"DayOfWeek":"пятница","Hours":"08:00-20:00"},{"global_id":1385,"global_object_id":3067946,"system_object_id":null,"DayOfWeek":"суббота","Hours":"08:00-20:00"},{"global_id":1386,"global_object_id":3067946,"system_object_id":null,"DayOfWeek":"воскресенье","Hours":"08:00-20:00"}],"ClarificationOfWorkingHours":null,"PaidService":"бесплатный","DisabilityFriendly":"не приспособлен","BalanceHolderName":"ГБУ ДОРИНВЕСТ","UNOM":"2705890","EntryState":"активна","EntryAddReason":null,"EntryModifyReason":[],"EntryDeleteReason":null,"ParentEntries":[],"ChildEntries":[],"geoData":{"type":"Point","coordinates":[37.730458346306,55.707114253638]},"dataset":"Стационарные общественные туалеты"},"type":"Feature"},{"geometry":{"coordinates":[37.793284213934,55.71788043677],"type":"Point"},"properties":{"global_id":3067947,"system_object_id":"53","ID":53,"Name":"Стационарный общественный туалет № 159","AdmArea":"Юго-Восточный административный округ","District":"Рязанский район","Location":"Рязанский проспект, дом 75Б, сооружение 1","LocationClarification":null,"CloseFlag":"закрыт","CloseReason":"По техническим причинам","WorkingHours":[{"global_id":1387,"global_object_id":3067947,"system_object_id":null,"DayOfWeek":"понедельник","Hours":"08:00-18:00"},{"global_id":1388,"global_object_id":3067947,"system_object_id":null,"DayOfWeek":"вторник","Hours":"08:00-18:00"},{"global_id":1389,"global_object_id":3067947,"system_object_id":null,"DayOfWeek":"среда","Hours":"08:00-18:00"},{"global_id":1390,"global_object_id":3067947,"system_object_id":null,"DayOfWeek":"четверг","Hours":"08:00-18:00"},{"global_id":1391,"global_object_id":3067947,"system_object_id":null,"DayOfWeek":"пятница","Hours":"08:00-18:00"},{"global_id":1392,"global_object_id":3067947,"system_object_id":null,"DayOfWeek":"суббота","Hours":"08:00-18:00"},{"global_id":1393,"global_object_id":3067947,"system_object_id":null,"DayOfWeek":"воскресенье","Hours":"08:00-18:00"}],"ClarificationOfWorkingHours":null,"PaidService":"бесплатный","DisabilityFriendly":"не приспособлен","BalanceHolderName":"ГБУ ДОРИНВЕСТ","UNOM":"2705865","EntryState":"активна","EntryAddReason":null,"EntryModifyReason":[],"EntryDeleteReason":null,"ParentEntries":[],"ChildEntries":[],"geoData":{"type":"Point","coordinates":[37.793284213934,55.71788043677]},"dataset":"Стационарные общественные туалеты"},"type":"Feature"},{"geometry":{"coordinates":[37.718506073711,55.7521478958],"type":"Point"},"properties":{"global_id":3067762,"system_object_id":"49","ID":49,"Name":"Стационарный общественный туалет № 127","AdmArea":"Юго-Восточный административный округ","District":"район Лефортово","Location":"Авиамоторная улица, дом 41А, сооружение 1","LocationClarification":null,"CloseFlag":"действует","CloseReason":null,"WorkingHours":[{"global_id":29,"global_object_id":3067762,"system_object_id":null,"DayOfWeek":"понедельник","Hours":"08:00-20:00"},{"global_id":30,"global_object_id":3067762,"system_object_id":null,"DayOfWeek":"вторник","Hours":"08:00-20:00"},{"global_id":31,"global_object_id":3067762,"system_object_id":null,"DayOfWeek":"среда","Hours":"08:00-20:00"},{"global_id":32,"global_object_id":3067762,"system_object_id":null,"DayOfWeek":"четверг","Hours":"08:00-20:00"},{"global_id":33,"global_object_id":3067762,"system_object_id":null,"DayOfWeek":"пятница","Hours":"08:00-20:00"},{"global_id":34,"global_object_id":3067762,"system_object_id":null,"DayOfWeek":"суббота","Hours":"08:00-20:00"},{"global_id":35,"global_object_id":3067762,"system_object_id":null,"DayOfWeek":"воскресенье","Hours":"08:00-20:00"}],"ClarificationOfWorkingHours":null,"PaidService":"бесплатный","DisabilityFriendly":"не приспособлен","BalanceHolderName":"ГБУ Доринвест","UNOM":"2706176","EntryState":"активна","EntryAddReason":null,"EntryModifyReason":[],"EntryDeleteReason":null,"ParentEntries":[],"ChildEntries":[],"geoData":{"type":"Point","coordinates":[37.718506073711,55.7521478958]},"dataset":"Стационарные общественные туалеты"},"type":"Feature"},{"geometry":{"coordinates":[37.694264018747,55.757857226264],"type":"Point"},"properties":{"global_id":3067761,"system_object_id":"41","ID":41,"Name":"Стационарный общественный туалет № 38","AdmArea":"Юго-Восточный административный округ","District":"район Лефортово","Location":"Красноказарменная улица, дом 6А","LocationClarification":null,"CloseFlag":"действует","CloseReason":null,"WorkingHours":[{"global_id":22,"global_object_id":3067761,"system_object_id":null,"DayOfWeek":"понедельник","Hours":"08:00-20:00"},{"global_id":23,"global_object_id":3067761,"system_object_id":null,"DayOfWeek":"вторник","Hours":"08:00-20:00"},{"global_id":24,"global_object_id":3067761,"system_object_id":null,"DayOfWeek":"среда","Hours":"08:00-20:00"},{"global_id":25,"global_object_id":3067761,"system_object_id":null,"DayOfWeek":"четверг","Hours":"08:00-20:00"},{"global_id":26,"global_object_id":3067761,"system_object_id":null,"DayOfWeek":"пятница","Hours":"08:00-20:00"},{"global_id":27,"global_object_id":3067761,"system_object_id":null,"DayOfWeek":"суббота","Hours":"08:00-20:00"},{"global_id":28,"global_object_id":3067761,"system_object_id":null,"DayOfWeek":"воскресенье","Hours":"08:00-20:00"}],"ClarificationOfWorkingHours":null,"PaidService":"бесплатный","DisabilityFriendly":"приспособлен","BalanceHolderName":"ГБУ Доринвест","UNOM":"2706179","EntryState":"активна","EntryAddReason":null,"EntryModifyReason":[],"EntryDeleteReason":null,"ParentEntries":[],"ChildEntries":[],"geoData":{"type":"Point","coordinates":[37.694264018747,55.757857226264]},"dataset":"Стационарные общественные туалеты"},"type":"Feature"},{"geometry":{"coordinates":[37.776369842079,55.745298354447],"type":"Point"},"properties":{"global_id":3067765,"system_object_id":"60","ID":60,"Name":"Стационарный общественный туалет № 118","AdmArea":"Восточный административный округ","District":"район Перово","Location":"Перовская улица, дом 32, строение 1","LocationClarification":null,"CloseFlag":"действует","CloseReason":null,"WorkingHours":[{"global_id":50,"global_object_id":3067765,"system_object_id":null,"DayOfWeek":"понедельник","Hours":"08:00-20:00"},{"global_id":51,"global_object_id":3067765,"system_object_id":null,"DayOfWeek":"вторник","Hours":"08:00-20:00"},{"global_id":52,"global_object_id":3067765,"system_object_id":null,"DayOfWeek":"среда","Hours":"08:00-20:00"},{"global_id":53,"global_object_id":3067765,"system_object_id":null,"DayOfWeek":"четверг","Hours":"08:00-20:00"},{"global_id":54,"global_object_id":3067765,"system_object_id":null,"DayOfWeek":"пятница","Hours":"08:00-20:00"},{"global_id":55,"global_object_id":3067765,"system_object_id":null,"DayOfWeek":"суббота","Hours":"08:00-20:00"},{"global_id":56,"global_object_id":3067765,"system_object_id":null,"DayOfWeek":"воскресенье","Hours":"08:00-20:00"}],"ClarificationOfWorkingHours":null,"PaidService":"бесплатный","DisabilityFriendly":"не приспособлен","BalanceHolderName":"ГБУ Доринвест","UNOM":"2503176","EntryState":"активна","EntryAddReason":null,"EntryModifyReason":[],"EntryDeleteReason":null,"ParentEntries":[],"ChildEntries":[],"geoData":{"type":"Point","coordinates":[37.776369842079,55.745298354447]},"dataset":"Стационарные общественные туалеты"},"type":"Feature"},{"geometry":{"coordinates":[37.765407967264,55.737199771798],"type":"Point"},"properties":{"global_id":3067766,"system_object_id":"61","ID":61,"Name":"Стационарный общественный туалет № 82","AdmArea":"Восточный административный округ","District":"район Перово","Location":"Кусковская улица, дом 2, строение 1","LocationClarification":null,"CloseFlag":"действует","CloseReason":null,"WorkingHours":[{"global_id":57,"global_object_id":3067766,"system_object_id":null,"DayOfWeek":"понедельник","Hours":"08:00-20:00"},{"global_id":58,"global_object_id":3067766,"system_object_id":null,"DayOfWeek":"вторник","Hours":"08:00-20:00"},{"global_id":59,"global_object_id":3067766,"system_object_id":null,"DayOfWeek":"среда","Hours":"08:00-20:00"},{"global_id":60,"global_object_id":3067766,"system_object_id":null,"DayOfWeek":"четверг","Hours":"08:00-20:00"},{"global_id":61,"global_object_id":3067766,"system_object_id":null,"DayOfWeek":"пятница","Hours":"08:00-20:00"},{"global_id":62,"global_object_id":3067766,"system_object_id":null,"DayOfWeek":"суббота","Hours":"08:00-20:00"},{"global_id":63,"global_object_id":3067766,"system_object_id":null,"DayOfWeek":"воскресенье","Hours":"08:00-20:00"}],"ClarificationOfWorkingHours":null,"PaidService":"бесплатный","DisabilityFriendly":"не приспособлен","BalanceHolderName":"ГБУ Доринвест","UNOM":"2502595","EntryState":"активна","EntryAddReason":null,"EntryModifyReason":[],"EntryDeleteReason":null,"ParentEntries":[],"ChildEntries":[],"geoData":{"type":"Point","coordinates":[37.765407967264,55.737199771798]},"dataset":"Стационарные общественные туалеты"},"type":"Feature"},{"geometry":{"coordinates":[37.774573369072,55.747123971323],"type":"Point"},"properties":{"global_id":3067764,"system_object_id":"58","ID":58,"Name":"Стационарный общественный туалет № 120","AdmArea":"Восточный административный округ","District":"район Перово","Location":"Перовская улица, дом 31","LocationClarification":null,"CloseFlag":"действует","CloseReason":null,"WorkingHours":[{"global_id":43,"global_object_id":3067764,"system_object_id":null,"DayOfWeek":"понедельник","Hours":"08:00-20:00"},{"global_id":44,"global_object_id":3067764,"system_object_id":null,"DayOfWeek":"вторник","Hours":"08:00-20:00"},{"global_id":45,"global_object_id":3067764,"system_object_id":null,"DayOfWeek":"среда","Hours":"08:00-20:00"},{"global_id":46,"global_object_id":3067764,"system_object_id":null,"DayOfWeek":"четверг","Hours":"08:00-20:00"},{"global_id":47,"global_object_id":3067764,"system_object_id":null,"DayOfWeek":"пятница","Hours":"08:00-20:00"},{"global_id":48,"global_object_id":3067764,"system_object_id":null,"DayOfWeek":"суббота","Hours":"08:00-20:00"},{"global_id":49,"global_object_id":3067764,"system_object_id":null,"DayOfWeek":"воскресенье","Hours":"08:00-20:00"}],"ClarificationOfWorkingHours":null,"PaidService":"бесплатный","DisabilityFriendly":"приспособлен","BalanceHolderName":"ГБУ Доринвест","UNOM":"2121997","EntryState":"активна","EntryAddReason":null,"EntryModifyReason":[],"EntryDeleteReason":null,"ParentEntries":[],"ChildEntries":[],"geoData":{"type":"Point","coordinates":[37.774573369072,55.747123971323]},"dataset":"Стационарные общественные туалеты"},"type":"Feature"},{"geometry":{"coordinates":[37.802840859289,55.750109361],"type":"Point"},"properties":{"global_id":3067846,"system_object_id":"66","ID":66,"Name":"Стационарный общественный туалет № 124","AdmArea":"Восточный административный округ","District":"район Новогиреево","Location":"Мартеновская улица, дом 25А","LocationClarification":null,"CloseFlag":"действует","CloseReason":null,"WorkingHours":[{"global_id":659,"global_object_id":3067846,"system_object_id":null,"DayOfWeek":"понедельник","Hours":"08:00-20:00"},{"global_id":660,"global_object_id":3067846,"system_object_id":null,"DayOfWeek":"вторник","Hours":"08:00-20:00"},{"global_id":661,"global_object_id":3067846,"system_object_id":null,"DayOfWeek":"среда","Hours":"08:00-20:00"},{"global_id":662,"global_object_id":3067846,"system_object_id":null,"DayOfWeek":"четверг","Hours":"08:00-20:00"},{"global_id":663,"global_object_id":3067846,"system_object_id":null,"DayOfWeek":"пятница","Hours":"08:00-20:00"},{"global_id":664,"global_object_id":3067846,"system_object_id":null,"DayOfWeek":"суббота","Hours":"08:00-20:00"},{"global_id":665,"global_object_id":3067846,"system_object_id":null,"DayOfWeek":"воскресенье","Hours":"08:00-20:00"}],"ClarificationOfWorkingHours":null,"PaidService":"бесплатный","DisabilityFriendly":"приспособлен","BalanceHolderName":"ГБУ ДОРИНВЕСТ","UNOM":"2102361","EntryState":"активна","EntryAddReason":null,"EntryModifyReason":[],"EntryDeleteReason":null,"ParentEntries":[],"ChildEntries":[],"geoData":{"type":"Point","coordinates":[37.802840859289,55.750109361]},"dataset":"Стационарные общественные туалеты"},"type":"Feature"},{"geometry":{"coordinates":[37.773710408546,55.730042992089],"type":"Point"},"properties":{"global_id":3067855,"system_object_id":"39","ID":39,"Name":"Стационарный общественный туалет № 1","AdmArea":"Юго-Восточный административный округ","District":"Рязанский район","Location":"улица Маёвок, дом 9","LocationClarification":null,"CloseFlag":"действует","CloseReason":null,"WorkingHours":[{"global_id":722,"global_object_id":3067855,"system_object_id":null,"DayOfWeek":"понедельник","Hours":"08:00-18:00"},{"global_id":723,"global_object_id":3067855,"system_object_id":null,"DayOfWeek":"вторник","Hours":"08:00-18:00"},{"global_id":724,"global_object_id":3067855,"system_object_id":null,"DayOfWeek":"среда","Hours":"08:00-18:00"},{"global_id":725,"global_object_id":3067855,"system_object_id":null,"DayOfWeek":"четверг","Hours":"08:00-18:00"},{"global_id":726,"global_object_id":3067855,"system_object_id":null,"DayOfWeek":"пятница","Hours":"08:00-18:00"},{"global_id":727,"global_object_id":3067855,"system_object_id":null,"DayOfWeek":"суббота","Hours":"08:00-18:00"},{"global_id":728,"global_object_id":3067855,"system_object_id":null,"DayOfWeek":"воскресенье","Hours":"08:00-18:00"}],"ClarificationOfWorkingHours":null,"PaidService":"бесплатный","DisabilityFriendly":"не приспособлен","BalanceHolderName":"ГБУ ДОРИНВЕСТ","UNOM":"2706170","EntryState":"активна","EntryAddReason":null,"EntryModifyReason":[],"EntryDeleteReason":null,"ParentEntries":[],"ChildEntries":[],"geoData":{"type":"Point","coordinates":[37.773710408546,55.730042992089]},"dataset":"Стационарные общественные туалеты"},"type":"Feature"},{"geometry":{"coordinates":[37.689782083063,55.706037577534],"type":"Point"},"properties":{"global_id":3067856,"system_object_id":"40","ID":40,"Name":"Стационарный общественный туалет № 154","AdmArea":"Юго-Восточный административный округ","District":"район Печатники","Location":"Южнопортовая улица, дом 22Б","LocationClarification":null,"CloseFlag":"действует","CloseReason":null,"WorkingHours":[{"global_id":729,"global_object_id":3067856,"system_object_id":null,"DayOfWeek":"понедельник","Hours":"08:00-20:00"},{"global_id":730,"global_object_id":3067856,"system_object_id":null,"DayOfWeek":"вторник","Hours":"08:00-20:00"},{"global_id":731,"global_object_id":3067856,"system_object_id":null,"DayOfWeek":"среда","Hours":"08:00-20:00"},{"global_id":732,"global_object_id":3067856,"system_object_id":null,"DayOfWeek":"четверг","Hours":"08:00-20:00"},{"global_id":733,"global_object_id":3067856,"system_object_id":null,"DayOfWeek":"пятница","Hours":"08:00-20:00"},{"global_id":734,"global_object_id":3067856,"system_object_id":null,"DayOfWeek":"суббота","Hours":"08:00-20:00"},{"global_id":735,"global_object_id":3067856,"system_object_id":null,"DayOfWeek":"воскресенье","Hours":"08:00-20:00"}],"ClarificationOfWorkingHours":null,"PaidService":"бесплатный","DisabilityFriendly":"не приспособлен","BalanceHolderName":"ГБУ ДОРИНВЕСТ","UNOM":"2706184","EntryState":"активна","EntryAddReason":null,"EntryModifyReason":[],"EntryDeleteReason":null,"ParentEntries":[],"ChildEntries":[],"geoData":{"type":"Point","coordinates":[37.689782083063,55.706037577534]},"dataset":"Стационарные общественные туалеты"},"type":"Feature"},{"geometry":{"coordinates":[37.794048607606,55.694783437825],"type":"Point"},"properties":{"global_id":3067861,"system_object_id":"43","ID":43,"Name":"Стационарный общественный туалет № 147","AdmArea":"Юго-Восточный административный округ","District":"район Выхино-Жулебино","Location":"Кузьминская улица, дом 3","LocationClarification":null,"CloseFlag":"действует","CloseReason":null,"WorkingHours":[{"global_id":764,"global_object_id":3067861,"system_object_id":null,"DayOfWeek":"понедельник","Hours":"08:00-18:00"},{"global_id":765,"global_object_id":3067861,"system_object_id":null,"DayOfWeek":"вторник","Hours":"08:00-18:00"},{"global_id":766,"global_object_id":3067861,"system_object_id":null,"DayOfWeek":"среда","Hours":"08:00-18:00"},{"global_id":767,"global_object_id":3067861,"system_object_id":null,"DayOfWeek":"четверг","Hours":"08:00-18:00"},{"global_id":768,"global_object_id":3067861,"system_object_id":null,"DayOfWeek":"пятница","Hours":"08:00-18:00"},{"global_id":769,"global_object_id":3067861,"system_object_id":null,"DayOfWeek":"суббота","Hours":"08:00-18:00"},{"global_id":770,"global_object_id":3067861,"system_object_id":null,"DayOfWeek":"воскресенье","Hours":"08:00-18:00"}],"ClarificationOfWorkingHours":null,"PaidService":"бесплатный","DisabilityFriendly":"приспособлен","BalanceHolderName":"ГБУ ДОРИНВЕСТ","UNOM":"2706187","EntryState":"активна","EntryAddReason":null,"EntryModifyReason":[],"EntryDeleteReason":null,"ParentEntries":[],"ChildEntries":[],"geoData":{"type":"Point","coordinates":[37.794048607606,55.694783437825]},"dataset":"Стационарные общественные туалеты"},"type":"Feature"},{"geometry":{"coordinates":[37.766224999855,55.695258556786],"type":"Point"},"properties":{"global_id":6050162,"system_object_id":"33","ID":33,"Name":"Стационарный общественный туалет (ПКиО Кузьминки)","AdmArea":"Юго-Восточный административный округ","District":"район Кузьминки","Location":"Кузьминский парк, дом 1, строение 2","LocationClarification":null,"CloseFlag":"действует","CloseReason":null,"WorkingHours":[{"global_id":253,"global_object_id":6050162,"system_object_id":null,"DayOfWeek":"понедельник","Hours":"11:00-21:00"},{"global_id":254,"global_object_id":6050162,"system_object_id":null,"DayOfWeek":"вторник","Hours":"11:00-21:00"},{"global_id":255,"global_object_id":6050162,"system_object_id":null,"DayOfWeek":"среда","Hours":"11:00-21:00"},{"global_id":256,"global_object_id":6050162,"system_object_id":null,"DayOfWeek":"четверг","Hours":"11:00-21:00"},{"global_id":257,"global_object_id":6050162,"system_object_id":null,"DayOfWeek":"пятница","Hours":"11:00-21:00"},{"global_id":258,"global_object_id":6050162,"system_object_id":null,"DayOfWeek":"суббота","Hours":"11:00-21:00"},{"global_id":259,"global_object_id":6050162,"system_object_id":null,"DayOfWeek":"воскресенье","Hours":"11:00-21:00"}],"ClarificationOfWorkingHours":null,"PaidService":"платный","DisabilityFriendly":"приспособлен","BalanceHolderName":"ГАУК г. Москвы «ПКиО Кузьминки»","UNOM":"2135072","EntryState":"активна","EntryAddReason":null,"EntryModifyReason":[],"EntryDeleteReason":null,"ParentEntries":[],"ChildEntries":[],"geoData":{"type":"Point","coordinates":[37.766224999855,55.695258556786]},"dataset":"Стационарные общественные туалеты"},"type":"Feature"},{"geometry":{"coordinates":[37.773709167801,55.741851814042],"type":"Point"},"properties":{"global_id":6050280,"system_object_id":"39","ID":39,"Name":"Стационарный общественный туалет (ПКиО Перовский)","AdmArea":"Восточный административный округ","District":"район Перово","Location":"улица Лазо, владение 7, строение 4","LocationClarification":null,"CloseFlag":"действует","CloseReason":null,"WorkingHours":[{"global_id":302,"global_object_id":6050280,"system_object_id":null,"DayOfWeek":"понедельник","Hours":"09:00-21:00"},{"global_id":303,"global_object_id":6050280,"system_object_id":null,"DayOfWeek":"вторник","Hours":"09:00-21:00"},{"global_id":304,"global_object_id":6050280,"system_object_id":null,"DayOfWeek":"среда","Hours":"09:00-21:00"},{"global_id":305,"global_object_id":6050280,"system_object_id":null,"DayOfWeek":"четверг","Hours":"09:00-21:00"},{"global_id":306,"global_object_id":6050280,"system_object_id":null,"DayOfWeek":"пятница","Hours":"09:00-21:00"},{"global_id":307,"global_object_id":6050280,"system_object_id":null,"DayOfWeek":"суббота","Hours":"09:00-22:00"},{"global_id":308,"global_object_id":6050280,"system_object_id":null,"DayOfWeek":"воскресенье","Hours":"09:00-22:00"}],"ClarificationOfWorkingHours":null,"PaidService":"бесплатный","DisabilityFriendly":"приспособлен","BalanceHolderName":"ГАУК г. Москвы «ПКиО «Перовский»","UNOM":"2502594","EntryState":"активна","EntryAddReason":null,"EntryModifyReason":[],"EntryDeleteReason":null,"ParentEntries":[],"ChildEntries":[],"geoData":{"type":"Point","coordinates":[37.773709167801,55.741851814042]},"dataset":"Стационарные общественные туалеты"},"type":"Feature"}]}